[{"id": "13772790660066588602", "title": "韶山烈士陵园", "address": "湖南省湘潭市韶山市天鹅路与英雄路交汇处", "tel": " ", "category": "生活服务:丧葬", "type": 0, "location": {"lat": 27.91341, "lng": 112.52698}, "ad_info": {"adcode": 430382, "province": "湖南省", "city": "湘潭市", "district": "韶山市"}}, {"id": "5817317608310525426", "title": "中部国际机械物流园", "address": "湖南省湘潭市岳塘区芙蓉大道", "tel": " ", "category": "生活服务:邮局速递:物流仓储场地", "type": 0, "location": {"lat": 27.894291, "lng": 112.991059}, "ad_info": {"adcode": 430304, "province": "湖南省", "city": "湘潭市", "district": "岳塘区"}}, {"id": "16538789746346542811", "title": "威妮宝贝摄影会所", "address": "湖南省湘潭市湘潭县云龙中路572号", "tel": "0731-57822399", "category": "生活服务:摄影冲印", "type": 0, "location": {"lat": 27.77276, "lng": 112.9493}, "ad_info": {"adcode": 430321, "province": "湖南省", "city": "湘潭市", "district": "湘潭县"}}, {"id": "12083949839056339877", "title": "中国移动(株易路口营业厅)", "address": "湖南省湘潭市岳塘区易家湾镇长株潭大市场A1栋9号正西方向110米", "tel": " ", "category": "生活服务:通讯服务:中国移动营业厅", "type": 0, "location": {"lat": 27.924103, "lng": 113.020888}, "ad_info": {"adcode": 430304, "province": "湖南省", "city": "湘潭市", "district": "岳塘区"}}, {"id": "2212281916786253866", "title": "尊爵婚纱摄影会所", "address": "湖南省湘潭市雨湖区韶山西路415号", "tel": "0731-52319246;15074913580", "category": "生活服务:婚庆服务", "type": 0, "location": {"lat": 27.859318, "lng": 112.890731}, "ad_info": {"adcode": 430302, "province": "湖南省", "city": "湘潭市", "district": "雨湖区"}}, {"id": "6389114056981667494", "title": "发泽造型", "address": "湖南省湘潭市岳塘区建设南路102号步步高广场湘潭店A馆2层", "tel": " ", "category": "生活服务:美容美发:美发", "type": 0, "location": {"lat": 27.83431, "lng": 112.9181}, "ad_info": {"adcode": 430304, "province": "湖南省", "city": "湘潭市", "district": "岳塘区"}}, {"id": "18308422437637256485", "title": "中国邮政(茶恩寺邮政所)", "address": "湖南省湘潭市湘潭县中国邮政(107国道南)", "tel": " ", "category": "生活服务:邮局速递:邮局", "type": 0, "location": {"lat": 27.38467, "lng": 112.87479}, "ad_info": {"adcode": 430321, "province": "湖南省", "city": "湘潭市", "district": "湘潭县"}}, {"id": "15222226571324998155", "title": "中国联通(七里铺营业厅)", "address": "湖南省湘潭市湘潭县云湖桥镇二零八省道闯恒酒店旁东南方向170米", "tel": "18673235228", "category": "生活服务:通讯服务:中国联通营业厅", "type": 0, "location": {"lat": 27.84245, "lng": 112.73375}, "ad_info": {"adcode": 430321, "province": "湖南省", "city": "湘潭市", "district": "湘潭县"}}, {"id": "14534985268597365882", "title": "中国铁通(长株潭大市场营业厅)", "address": "湖南省湘潭市岳塘区易家湾镇株易路口长株潭大市场A13栋", "tel": " ", "category": "生活服务:通讯服务:中国铁通营业厅", "type": 0, "location": {"lat": 27.92189, "lng": 113.02196}, "ad_info": {"adcode": 430304, "province": "湖南省", "city": "湘潭市", "district": "岳塘区"}}, {"id": "572326941227661436", "title": "青春记忆(华隆步步高店)", "address": "湖南省湘潭市岳塘区建设路口步步高广场C座商务楼18层18104", "tel": "17352675630", "category": "生活服务:美容美发:美容SPA", "type": 0, "location": {"lat": 27.834171, "lng": 112.917343}, "ad_info": {"adcode": 430304, "province": "湖南省", "city": "湘潭市", "district": "岳塘区"}}, {"id": "4202503237535873256", "title": "佑米造型(江麓广场店)", "address": "湖南省湘潭市雨湖区建设北路白石商业广场17楼", "tel": "18673282678", "category": "生活服务:美容美发:美发", "type": 0, "location": {"lat": 27.857851, "lng": 112.906433}, "ad_info": {"adcode": 430302, "province": "湖南省", "city": "湘潭市", "district": "雨湖区"}}, {"id": "7339210727820288875", "title": "风尚专业烫染造型(中汇店)", "address": "湖南省湘潭市岳塘区岚园路中汇大厦2楼(胜利电影院正对面)", "tel": " ", "category": "生活服务:美容美发:美发", "type": 0, "location": {"lat": 27.83393, "lng": 112.91681}, "ad_info": {"adcode": 430304, "province": "湖南省", "city": "湘潭市", "district": "岳塘区"}}, {"id": "12959863828156692177", "title": "奈欧美甲(万隆中央广场)", "address": "湖南省湘潭市湘乡市东风路3号万隆中央广场F2", "tel": " ", "category": "生活服务:美容美发:美甲", "type": 0, "location": {"lat": 27.734091, "lng": 112.531539}, "ad_info": {"adcode": 430381, "province": "湖南省", "city": "湘潭市", "district": "湘乡市"}}, {"id": "8978722442906948986", "title": "88潮牌美发连锁(万达店)", "address": "湖南省湘潭市岳塘区万达金街圆形广场2楼", "tel": " ", "category": "生活服务:美容美发:美发", "type": 0, "location": {"lat": 27.826699, "lng": 112.940924}, "ad_info": {"adcode": 430304, "province": "湖南省", "city": "湘潭市", "district": "岳塘区"}}, {"id": "7868627788125880717", "title": "羽·日式轻奢美发沙龙", "address": "湖南省湘潭市岳塘区湖湘西路纳帕溪谷后湾西门", "tel": "13652389989", "category": "生活服务:美容美发:美发", "type": 0, "location": {"lat": 27.834665, "lng": 112.935454}, "ad_info": {"adcode": 430304, "province": "湖南省", "city": "湘潭市", "district": "岳塘区"}}, {"id": "4589770427588109757", "title": "蕾特恩专业祛痘(湘潭店)", "address": "湖南省湘潭市雨湖区韶山西路54号", "tel": "0731-52767878", "category": "生活服务:美容美发:美容SPA", "type": 0, "location": {"lat": 27.862568, "lng": 112.90247}, "ad_info": {"adcode": 430302, "province": "湖南省", "city": "湘潭市", "district": "雨湖区"}}, {"id": "5396239953221001621", "title": "小S专业理发", "address": "湖南省湘潭市湘乡市健康西路", "tel": "13407426786", "category": "生活服务:美容美发:美发", "type": 0, "location": {"lat": 27.728021, "lng": 112.525718}, "ad_info": {"adcode": 430381, "province": "湖南省", "city": "湘潭市", "district": "湘乡市"}}, {"id": "16179541258640959598", "title": "A视觉婚纱艺术会馆", "address": "湖南省湘潭市雨湖区金湘潭商业广场9楼A座923室", "tel": " ", "category": "生活服务:婚庆服务", "type": 0, "location": {"lat": 27.86304, "lng": 112.906631}, "ad_info": {"adcode": 430302, "province": "湖南省", "city": "湘潭市", "district": "雨湖区"}}, {"id": "6583274849859692970", "title": "最佳发扉形象会所(基建营总店)", "address": "湖南省湘潭市雨湖区基建营建成路新华书店1-2号门面", "tel": " ", "category": "生活服务:美容美发:美发", "type": 0, "location": {"lat": 27.86411, "lng": 112.91218}, "ad_info": {"adcode": 430302, "province": "湖南省", "city": "湘潭市", "district": "雨湖区"}}, {"id": "16975697686246311544", "title": "莱色BABY优优儿童孕妈咪艺术摄影", "address": "湖南省湘潭市岳塘区建设南路莲城商业步行街F区2栋2楼正西方向90米", "tel": " ", "category": "生活服务:摄影冲印", "type": 0, "location": {"lat": 27.829223, "lng": 112.919695}, "ad_info": {"adcode": 430304, "province": "湖南省", "city": "湘潭市", "district": "岳塘区"}}, {"id": "9549545971662337952", "title": "伊莎贝尔婚纱艺术摄影(银杏南路)", "address": "湖南省湘潭市湘潭县银杏路81号(县司法局公交站牌后面23-116-601路下车即到)", "tel": " ", "category": "生活服务:婚庆服务", "type": 0, "location": {"lat": 27.77912, "lng": 112.94774}, "ad_info": {"adcode": 430321, "province": "湖南省", "city": "湘潭市", "district": "湘潭县"}}, {"id": "9904662004640948486", "title": "新娘百分百摄影会所", "address": "湖南省湘潭市湘乡市东风路43号(往火车站方向)", "tel": " ", "category": "生活服务:婚庆服务", "type": 0, "location": {"lat": 27.73899, "lng": 112.531}, "ad_info": {"adcode": 430381, "province": "湖南省", "city": "湘潭市", "district": "湘乡市"}}, {"id": "2030879553033540208", "title": "倍亲专业产后修复中心", "address": "湖南省湘潭市岳塘区霞光路湖湘林语二期(湘银纳帕溪谷附近)", "tel": "17607327767", "category": "生活服务:美容美发:瘦身纤体", "type": 0, "location": {"lat": 27.8333, "lng": 112.9345}, "ad_info": {"adcode": 430304, "province": "湖南省", "city": "湘潭市", "district": "岳塘区"}}, {"id": "16685073065087899200", "title": "罗曼庭婚纱", "address": "湖南省湘潭市湘乡市工贸新区小康花园A1栋(市法院斜对面)", "tel": " ", "category": "生活服务:婚庆服务", "type": 0, "location": {"lat": 27.73472, "lng": 112.51858}, "ad_info": {"adcode": 430381, "province": "湖南省", "city": "湘潭市", "district": "湘乡市"}}, {"id": "10600787405405343003", "title": "尚可研", "address": "湖南省湘潭市岳塘区万达金街圆形广场2楼", "tel": " ", "category": "生活服务:美容美发:美容SPA", "type": 0, "location": {"lat": 27.826699, "lng": 112.940924}, "ad_info": {"adcode": 430304, "province": "湖南省", "city": "湘潭市", "district": "岳塘区"}}, {"id": "12113346081082466398", "title": "迅康宠物医院", "address": "湖南省湘潭市岳塘区霞光中路28号", "tel": "13973216578", "category": "生活服务:宠物服务:宠物医院", "type": 0, "location": {"lat": 27.830746, "lng": 112.925709}, "ad_info": {"adcode": 430304, "province": "湖南省", "city": "湘潭市", "district": "岳塘区"}}, {"id": "8519856597321773811", "title": "嘉柏俪香薰美肌芳法", "address": "湖南省湘潭市湘乡市望春门街道夏梓桥95号(东方红幼儿园旁边)", "tel": "13342529588; 15873266170", "category": "生活服务:美容美发:美容SPA", "type": 0, "location": {"lat": 27.737243, "lng": 112.538491}, "ad_info": {"adcode": 430381, "province": "湖南省", "city": "湘潭市", "district": "湘乡市"}}, {"id": "12440576511169746179", "title": "车站路京花店", "address": "湖南省湘潭市雨湖区车站路414号", "tel": "13298531806", "category": "生活服务:丧葬", "type": 0, "location": {"lat": 27.870275, "lng": 112.912109}, "ad_info": {"adcode": 430302, "province": "湖南省", "city": "湘潭市", "district": "雨湖区"}}, {"id": "7652498334236484833", "title": "艾米佳人美丽有约湘潭旗舰店", "address": "湖南省湘潭市岳塘区芙蓉中路湘潭万达广场", "tel": "13087228297", "category": "生活服务:摄影冲印", "type": 0, "location": {"lat": 27.827226, "lng": 112.940891}, "ad_info": {"adcode": 430304, "province": "湖南省", "city": "湘潭市", "district": "岳塘区"}}, {"id": "5691129388993173014", "title": "联想3C服务中心(湘潭县接修店)", "address": "湖南省湘潭市湘潭县易俗河镇凤凰中路北侧782号", "tel": "18073205453", "category": "生活服务:其它生活服务", "type": 0, "location": {"lat": 27.785665, "lng": 112.953433}, "ad_info": {"adcode": 430321, "province": "湖南省", "city": "湘潭市", "district": "湘潭县"}}, {"id": "14662061663812910775", "title": "苗医生专业祛痘祛斑(南盘岭店)", "address": "湖南省湘潭市雨湖区中国邮政储蓄银行(南岭支行)旁", "tel": "0731-55574188", "category": "生活服务:美容美发:其它美容美发", "type": 0, "location": {"lat": 27.8597, "lng": 112.89053}, "ad_info": {"adcode": 430302, "province": "湖南省", "city": "湘潭市", "district": "雨湖区"}}, {"id": "15313393270899994211", "title": "玩美会所风尚造型", "address": "湖南省湘潭市湘潭县金桂南路465号", "tel": "18975207575", "category": "生活服务:美容美发:美发", "type": 0, "location": {"lat": 27.781343, "lng": 112.951575}, "ad_info": {"adcode": 430321, "province": "湖南省", "city": "湘潭市", "district": "湘潭县"}}, {"id": "4980416939118967001", "title": "万福龙物流", "address": "湖南省湘潭市雨湖区建设北路二纺铁路", "tel": " ", "category": "生活服务:邮局速递:物流公司", "type": 0, "location": {"lat": 27.87917, "lng": 112.90254}, "ad_info": {"adcode": 430302, "province": "湖南省", "city": "湘潭市", "district": "雨湖区"}}, {"id": "9487208697387930557", "title": "清雅美容美发美体SPA养生会所", "address": "湖南省湘潭市岳塘区板马路142正东方向110米", "tel": " ", "category": "生活服务:美容美发:美容SPA", "type": 0, "location": {"lat": 27.85874, "lng": 112.96485}, "ad_info": {"adcode": 430304, "province": "湖南省", "city": "湘潭市", "district": "岳塘区"}}, {"id": "17798603179001757344", "title": "湖南九华钢材物流园", "address": "湖南省湘潭市雨湖区桃李北路与赤江路交叉口东南100米", "tel": " ", "category": "生活服务:邮局速递:物流仓储场地", "type": 0, "location": {"lat": 27.935245, "lng": 112.93911}, "ad_info": {"adcode": 430302, "province": "湖南省", "city": "湘潭市", "district": "雨湖区"}}, {"id": "6988163594242241975", "title": "华隆步步高广场二期", "address": "湖南省湘潭市岳塘区建设南路西100米步步高广场", "tel": " ", "category": "生活服务:中介机构", "type": 0, "location": {"lat": 27.832722, "lng": 112.919151}, "ad_info": {"adcode": 430304, "province": "湖南省", "city": "湘潭市", "district": "岳塘区"}}, {"id": "675480569037430310", "title": "湘乡兰桂坊宾馆", "address": "湖南省湘潭市湘乡市工贸新区梅坪2栋", "tel": "13975218957", "category": "生活服务:测字风水", "type": 0, "location": {"lat": 27.73782, "lng": 112.52111}, "ad_info": {"adcode": 430381, "province": "湖南省", "city": "湘潭市", "district": "湘乡市"}}, {"id": "4231935822961990594", "title": "湖南锦程司法鉴定中心", "address": "湖南省湘潭市湘潭县瑞莲路175号", "tel": " ", "category": "生活服务:事务所", "type": 0, "location": {"lat": 27.77645, "lng": 112.94824}, "ad_info": {"adcode": 430321, "province": "湖南省", "city": "湘潭市", "district": "湘潭县"}}, {"id": "12063720966090168921", "title": "湘潭市殡仪馆", "address": "湖南省湘潭市雨湖区金桐路9号", "tel": " ", "category": "生活服务:丧葬", "type": 0, "location": {"lat": 27.89523, "lng": 112.89165}, "ad_info": {"adcode": 430302, "province": "湖南省", "city": "湘潭市", "district": "雨湖区"}}, {"id": "8746627707210081223", "title": "玮鸿农产品冷链物流", "address": "湖南省湘潭市岳塘区 ", "tel": " ", "category": "生活服务:邮局速递:物流公司", "type": 0, "location": {"lat": 27.89778, "lng": 112.98949}, "ad_info": {"adcode": 430304, "province": "湖南省", "city": "湘潭市", "district": "岳塘区"}}, {"id": "11462359051249967621", "title": "中国邮政科大邮政分局", "address": "湖南省湘潭市雨湖区响水乡科技大学北门", "tel": " ", "category": "生活服务:邮局速递:邮局", "type": 0, "location": {"lat": 27.90389, "lng": 112.91706}, "ad_info": {"adcode": 430302, "province": "湖南省", "city": "湘潭市", "district": "雨湖区"}}, {"id": "5703304485733886491", "title": "法丝形象会所", "address": "湖南省湘潭市岳塘区建设路口岚园路39号", "tel": " ", "category": "生活服务:美容美发:美发", "type": 0, "location": {"lat": 27.8343, "lng": 112.915786}, "ad_info": {"adcode": 430304, "province": "湖南省", "city": "湘潭市", "district": "岳塘区"}}, {"id": "7914813711119483613", "title": "湖南金顺物流仓储有限公司", "address": "湖南省湘潭市岳塘区下摄司街道铁牛路2号", "tel": " ", "category": "生活服务:邮局速递:物流公司", "type": 0, "location": {"lat": 27.79607, "lng": 112.92367}, "ad_info": {"adcode": 430304, "province": "湖南省", "city": "湘潭市", "district": "岳塘区"}}, {"id": "8477965060991493109", "title": "湘潭市社会福利院", "address": "湖南省湘潭市岳塘区板塘铺板马路3号东北方向130米", "tel": " ", "category": "生活服务:福利院养老院", "type": 0, "location": {"lat": 27.85789, "lng": 112.98209}, "ad_info": {"adcode": 430304, "province": "湖南省", "city": "湘潭市", "district": "岳塘区"}}, {"id": "2574328021296316712", "title": "中国电信(东方红营业厅)", "address": "湖南省湘潭市岳塘区芙蓉中路9号", "tel": " ", "category": "生活服务:通讯服务:中国电信营业厅", "type": 0, "location": {"lat": 27.828075, "lng": 112.943415}, "ad_info": {"adcode": 430304, "province": "湖南省", "city": "湘潭市", "district": "岳塘区"}}, {"id": "10907251538497098146", "title": "米兰婚纱摄影连锁机构(易俗河店)", "address": "湖南省湘潭市湘潭县大鹏中路678号", "tel": "0731-57777533", "category": "生活服务:婚庆服务", "type": 0, "location": {"lat": 27.77739, "lng": 112.947582}, "ad_info": {"adcode": 430321, "province": "湖南省", "city": "湘潭市", "district": "湘潭县"}}, {"id": "14452647937311532024", "title": "湘潭站售票厅", "address": "湖南省湘潭市雨湖区车站路", "tel": " ", "category": "生活服务:票务代售:火车票代售", "type": 0, "location": {"lat": 27.87515, "lng": 112.91303}, "ad_info": {"adcode": 430302, "province": "湖南省", "city": "湘潭市", "district": "雨湖区"}}, {"id": "4316644743602237167", "title": "和顺石油化工物流中心", "address": "湖南省湘潭市岳塘区板马路7号", "tel": " ", "category": "生活服务:邮局速递:物流公司", "type": 0, "location": {"lat": 27.851446, "lng": 112.999283}, "ad_info": {"adcode": 430304, "province": "湖南省", "city": "湘潭市", "district": "岳塘区"}}, {"id": "16116306829126054487", "title": "湖南湘农农资物流中心", "address": "湖南省湘潭市岳塘区易家湾吴家台子35号门面正北方向30米", "tel": " ", "category": "生活服务:邮局速递:物流公司", "type": 0, "location": {"lat": 27.95396, "lng": 113.01849}, "ad_info": {"adcode": 430304, "province": "湖南省", "city": "湘潭市", "district": "岳塘区"}}, {"id": "10987929384906817012", "title": "大世界美容美发SPA养生会所", "address": "湖南省湘潭市岳塘区建设中路10东南方向40米", "tel": " ", "category": "生活服务:美容美发:美发", "type": 0, "location": {"lat": 27.83624, "lng": 112.91811}, "ad_info": {"adcode": 430304, "province": "湖南省", "city": "湘潭市", "district": "岳塘区"}}, {"id": "16337832303115793201", "title": "中国邮政(晓南邮政所)", "address": "湖南省湘潭市湘潭县青山桥镇025县道南(晓南村)", "tel": " ", "category": "生活服务:邮局速递:邮局", "type": 0, "location": {"lat": 27.47206, "lng": 112.63691}, "ad_info": {"adcode": 430321, "province": "湖南省", "city": "湘潭市", "district": "湘潭县"}}, {"id": "13931855250916306458", "title": "维多利亚皇室婚纱国际摄影机构(湘潭店)", "address": "湖南省湘潭市岳塘区建设中路48号(市环保局正对面)", "tel": " ", "category": "生活服务:婚庆服务", "type": 0, "location": {"lat": 27.837645, "lng": 112.917603}, "ad_info": {"adcode": 430304, "province": "湖南省", "city": "湘潭市", "district": "岳塘区"}}, {"id": "5588267928277715368", "title": "德邦快递(海棠北路店)", "address": "湖南省湘潭市湘潭县海棠北路577号", "tel": " ", "category": "生活服务:邮局速递:速递", "type": 0, "location": {"lat": 27.78856, "lng": 112.96446}, "ad_info": {"adcode": 430321, "province": "湖南省", "city": "湘潭市", "district": "湘潭县"}}, {"id": "15324004833400504160", "title": "云湖桥邮政支局", "address": "湖南省湘潭市湘潭县云湖桥镇石井铺村", "tel": " ", "category": "生活服务:邮局速递:邮局", "type": 0, "location": {"lat": 27.82375, "lng": 112.71348}, "ad_info": {"adcode": 430321, "province": "湖南省", "city": "湘潭市", "district": "湘潭县"}}, {"id": "6906690765495753498", "title": "大汉钢铁物流园", "address": "湖南省湘潭市岳塘区板塘乡西塘村迅达大道", "tel": " ", "category": "生活服务:邮局速递:物流仓储场地", "type": 0, "location": {"lat": 27.831882, "lng": 112.970634}, "ad_info": {"adcode": 430304, "province": "湖南省", "city": "湘潭市", "district": "岳塘区"}}, {"id": "17750665390380425785", "title": "湘潭市烈士陵园", "address": "湖南省湘潭市雨湖区陵园路30号", "tel": " ", "category": "生活服务:丧葬", "type": 0, "location": {"lat": 27.87045, "lng": 112.90136}, "ad_info": {"adcode": 430302, "province": "湖南省", "city": "湘潭市", "district": "雨湖区"}}, {"id": "18083282190201219618", "title": "中国邮政(石潭邮政支局)", "address": "湖南省湘潭市湘潭县石潭镇农民街69号", "tel": " ", "category": "生活服务:邮局速递:邮局", "type": 0, "location": {"lat": 27.75814, "lng": 112.71762}, "ad_info": {"adcode": 430321, "province": "湖南省", "city": "湘潭市", "district": "湘潭县"}}, {"id": "15260732671107345290", "title": "湘潭市荷塘邮政所", "address": "湖南省湘潭市岳塘区荷塘乡金湖安置区3栋", "tel": "13786260852", "category": "生活服务:邮局速递:邮局", "type": 0, "location": {"lat": 27.90102, "lng": 112.99507}, "ad_info": {"adcode": 430304, "province": "湖南省", "city": "湘潭市", "district": "岳塘区"}}, {"id": "17099579293230789027", "title": "中国邮政(东郊支局)", "address": "湖南省湘潭市湘乡市东郊乡长丰村二组", "tel": " ", "category": "生活服务:邮局速递:邮局", "type": 0, "location": {"lat": 27.76856, "lng": 112.58048}, "ad_info": {"adcode": 430381, "province": "湖南省", "city": "湘潭市", "district": "湘乡市"}}, {"id": "7714371848032324874", "title": "云通物流", "address": "湖南省湘潭市岳塘区商城路与沃土路交汇口东南侧300米路北", "tel": "400-891-0528", "category": "生活服务:邮局速递:物流公司", "type": 0, "location": {"lat": 27.896528, "lng": 112.99678}, "ad_info": {"adcode": 430304, "province": "湖南省", "city": "湘潭市", "district": "岳塘区"}}, {"id": "16065893604590220549", "title": "大视觉摄影(湘潭店)", "address": "湖南省湘潭市雨湖区韶山中路30号金湘潭商业广场A座7层719号", "tel": " ", "category": "生活服务:摄影冲印", "type": 0, "location": {"lat": 27.862938, "lng": 112.90654}, "ad_info": {"adcode": 430302, "province": "湖南省", "city": "湘潭市", "district": "雨湖区"}}, {"id": "1503477810322173290", "title": "中国邮政(姜畲邮政支局)", "address": "湖南省湘潭市雨湖区中国邮政(320国道南)", "tel": "13973214630", "category": "生活服务:邮局速递:邮局", "type": 0, "location": {"lat": 27.85682, "lng": 112.8226}, "ad_info": {"adcode": 430302, "province": "湖南省", "city": "湘潭市", "district": "雨湖区"}}, {"id": "11828354808587804404", "title": "中国移动(花石金鹰指定店)", "address": "湖南省湘潭市湘潭县花石镇新桥路6号", "tel": "13975215166", "category": "生活服务:通讯服务:中国移动营业厅", "type": 0, "location": {"lat": 27.50784, "lng": 112.7176}, "ad_info": {"adcode": 430321, "province": "湖南省", "city": "湘潭市", "district": "湘潭县"}}, {"id": "12808327808274636709", "title": "中国移动手机专卖店华为店", "address": "湖南省湘潭市湘潭县谭家山镇卫生院附近东南方向150米", "tel": " ", "category": "生活服务:通讯服务:中国移动营业厅", "type": 0, "location": {"lat": 27.63672, "lng": 112.98252}, "ad_info": {"adcode": 430321, "province": "湖南省", "city": "湘潭市", "district": "湘潭县"}}, {"id": "6164868872235141438", "title": "中国移动(手机专卖店)", "address": "湖南省湘潭市湘潭县海棠南路610号", "tel": " ", "category": "生活服务:通讯服务:中国移动营业厅", "type": 0, "location": {"lat": 27.75977, "lng": 112.95492}, "ad_info": {"adcode": 430321, "province": "湖南省", "city": "湘潭市", "district": "湘潭县"}}, {"id": "15301384559203444297", "title": "朵朵名妆美甲纹绣", "address": "湖南省湘潭市湘乡市健康路与南正街交口往南正街小学20米(万利隆)", "tel": "13467931586", "category": "生活服务:美容美发:美甲", "type": 0, "location": {"lat": 27.727897, "lng": 112.529384}, "ad_info": {"adcode": 430381, "province": "湖南省", "city": "湘潭市", "district": "湘乡市"}}, {"id": "16685795929510701580", "title": "天使宝贝儿童摄影名店", "address": "湖南省湘潭市岳塘区建设中路432号(体育中心对面)", "tel": "0731-58217177", "category": "生活服务:摄影冲印", "type": 0, "location": {"lat": 27.84375, "lng": 112.91513}, "ad_info": {"adcode": 430304, "province": "湖南省", "city": "湘潭市", "district": "岳塘区"}}, {"id": "16195778078027088422", "title": "悦来悦美(步行街店)", "address": "湖南省湘潭市岳塘区莲城商业步行街C435", "tel": "15898512234; 17373282703", "category": "生活服务:美容美发:美发", "type": 0, "location": {"lat": 27.830689, "lng": 112.919798}, "ad_info": {"adcode": 430304, "province": "湖南省", "city": "湘潭市", "district": "岳塘区"}}, {"id": "14532884476324029313", "title": "88潮牌美发连锁(科大北校店)", "address": "湖南省湘潭市雨湖区响水乡湖南科技大学北校赤马路锦绣世家斜对面", "tel": "15607325862", "category": "生活服务:美容美发:美发", "type": 0, "location": {"lat": 27.898873, "lng": 112.916999}, "ad_info": {"adcode": 430302, "province": "湖南省", "city": "湘潭市", "district": "雨湖区"}}, {"id": "15477064183200239136", "title": "快乐辛巴儿童理发儿童陶艺", "address": "湖南省湘潭市岳塘区湘潭大道249号湘潭万达广场2层", "tel": "0731-52812728; 15573112343", "category": "生活服务:美容美发:其它美容美发", "type": 0, "location": {"lat": 27.827912, "lng": 112.938934}, "ad_info": {"adcode": 430304, "province": "湖南省", "city": "湘潭市", "district": "岳塘区"}}, {"id": "15680801431357057744", "title": "自然养生会所", "address": "湖南省湘潭市岳塘区福星中路盘龙名府自然养生会所", "tel": " ", "category": "生活服务:美容美发:美容SPA", "type": 0, "location": {"lat": 27.84802, "lng": 112.9411}, "ad_info": {"adcode": 430304, "province": "湖南省", "city": "湘潭市", "district": "岳塘区"}}, {"id": "14821439680793009091", "title": "克丽缇娜美容会所(九华店)", "address": "湖南省湘潭市雨湖区九华开发区步步高大道金侨城11栋1号", "tel": "0731-55555760", "category": "生活服务:美容美发:美容SPA", "type": 0, "location": {"lat": 27.904195, "lng": 112.938748}, "ad_info": {"adcode": 430302, "province": "湖南省", "city": "湘潭市", "district": "雨湖区"}}, {"id": "2726457085717531792", "title": "百度造型专业烫染吧", "address": "湖南省湘潭市雨湖区韶山西路迎宾村1栋15号门面", "tel": "17769415527", "category": "生活服务:美容美发:美发", "type": 0, "location": {"lat": 27.860893, "lng": 112.897446}, "ad_info": {"adcode": 430302, "province": "湖南省", "city": "湘潭市", "district": "雨湖区"}}, {"id": "14788871438599748648", "title": "As-one HAIR SALON", "address": "湖南省湘潭市岳塘区湘潭大道223号", "tel": "13117320800", "category": "生活服务:美容美发:美发", "type": 0, "location": {"lat": 27.82766, "lng": 112.940521}, "ad_info": {"adcode": 430304, "province": "湖南省", "city": "湘潭市", "district": "岳塘区"}}, {"id": "618442780762226558", "title": "格美发型设计", "address": "湖南省湘潭市湘乡市健康西路人民医院右侧150米(昆仑桥办事处旁一中后门对面)", "tel": "13973267116", "category": "生活服务:美容美发:美发", "type": 0, "location": {"lat": 27.728144, "lng": 112.525903}, "ad_info": {"adcode": 430381, "province": "湖南省", "city": "湘潭市", "district": "湘乡市"}}, {"id": "2221306000429776455", "title": "红星刺青", "address": "湖南省湘潭市雨湖区罗源广场165号2号2层", "tel": "15367111118", "category": "生活服务:美容美发:美发", "type": 0, "location": {"lat": 27.855745, "lng": 112.907442}, "ad_info": {"adcode": 430302, "province": "湖南省", "city": "湘潭市", "district": "雨湖区"}}, {"id": "13005706215243305913", "title": "狼形象设计", "address": "湖南省湘潭市雨湖区湖南科技大学北校附近", "tel": "13667420789", "category": "生活服务:美容美发:美发", "type": 0, "location": {"lat": 27.90326, "lng": 112.91614}, "ad_info": {"adcode": 430302, "province": "湖南省", "city": "湘潭市", "district": "雨湖区"}}, {"id": "8694462802145501612", "title": "尚可研美容中心", "address": "湖南省湘潭市岳塘区岚霞路芙蓉兴盛旁边", "tel": " ", "category": "生活服务:美容美发:美容SPA", "type": 0, "location": {"lat": 27.832897, "lng": 112.916542}, "ad_info": {"adcode": 430304, "province": "湖南省", "city": "湘潭市", "district": "岳塘区"}}, {"id": "17422258322712141148", "title": "黛丽丝(望春南路店)", "address": "湖南省湘潭市湘乡市大将中路南(金宝贝幼稚园附近)", "tel": "0731-56783043", "category": "生活服务:美容美发:美发", "type": 0, "location": {"lat": 27.73888, "lng": 112.53758}, "ad_info": {"adcode": 430381, "province": "湖南省", "city": "湘潭市", "district": "湘乡市"}}, {"id": "11405032852358116283", "title": "湘潭美时慕(莲城步步高店)", "address": "湖南省湘潭市岳塘区莲城步行街F2栋2层", "tel": " ", "category": "生活服务:美容美发:美容SPA", "type": 0, "location": {"lat": 27.8291, "lng": 112.92042}, "ad_info": {"adcode": 430304, "province": "湖南省", "city": "湘潭市", "district": "岳塘区"}}, {"id": "8780510196938166939", "title": "HUB造型舍", "address": "湖南省湘潭市岳塘区河东大道宝塔路口上海浦东发展银行16楼1605室(湘潭分行)", "tel": "15673257730", "category": "生活服务:美容美发:美容SPA", "type": 0, "location": {"lat": 27.836575, "lng": 112.929291}, "ad_info": {"adcode": 430304, "province": "湖南省", "city": "湘潭市", "district": "岳塘区"}}, {"id": "1454644945418096909", "title": "佰度店美容美发养生会所", "address": "湖南省湘潭市岳塘区腾湘大厦东座4-5号门店", "tel": " ", "category": "生活服务:美容美发:美发", "type": 0, "location": {"lat": 27.85911, "lng": 112.95843}, "ad_info": {"adcode": 430304, "province": "湖南省", "city": "湘潭市", "district": "岳塘区"}}, {"id": "17163094452819494533", "title": "中国邮政(杉山社区)", "address": "湖南省湘潭市雨湖区吉利路附近正东方向100米", "tel": " ", "category": "生活服务:邮局速递:邮局", "type": 0, "location": {"lat": 27.933041, "lng": 112.931755}, "ad_info": {"adcode": 430302, "province": "湖南省", "city": "湘潭市", "district": "雨湖区"}}, {"id": "13795441593231967277", "title": "施华洛摄影会所", "address": "湖南省湘潭市湘潭县凤凰东路146号", "tel": "0731-57896289", "category": "生活服务:摄影冲印", "type": 0, "location": {"lat": 27.79087, "lng": 112.96757}, "ad_info": {"adcode": 430321, "province": "湖南省", "city": "湘潭市", "district": "湘潭县"}}, {"id": "16285619147355429422", "title": "美丽有约(华隆步步高店)", "address": "湖南省湘潭市岳塘区建设路口华隆步步高B1层", "tel": "13087228297", "category": "生活服务:美容美发:美甲", "type": 0, "location": {"lat": 27.833739, "lng": 112.918365}, "ad_info": {"adcode": 430304, "province": "湖南省", "city": "湘潭市", "district": "岳塘区"}}, {"id": "10645069408862691100", "title": "宫·造型SALON", "address": "湖南省湘潭市岳塘区河东大道1417号", "tel": "15273276255", "category": "生活服务:美容美发:美发", "type": 0, "location": {"lat": 27.83515, "lng": 112.9219}, "ad_info": {"adcode": 430304, "province": "湖南省", "city": "湘潭市", "district": "岳塘区"}}, {"id": "17501758288583414407", "title": "森雅科技美肤工作室", "address": "湖南省湘潭市岳塘区莲城商业步行街", "tel": "15573231511", "category": "生活服务:美容美发:美容SPA", "type": 0, "location": {"lat": 27.830065, "lng": 112.917267}, "ad_info": {"adcode": 430304, "province": "湖南省", "city": "湘潭市", "district": "岳塘区"}}, {"id": "167656121028353305", "title": "中通快递", "address": "湖南省湘潭市韶山市红河谷茶酒楼东北侧30米", "tel": "13807323946", "category": "生活服务:邮局速递:速递", "type": 0, "location": {"lat": 27.919132, "lng": 112.53566}, "ad_info": {"adcode": 430382, "province": "湖南省", "city": "湘潭市", "district": "韶山市"}}, {"id": "853372587515608429", "title": "中国邮政(射埠邮政所)", "address": "湖南省湘潭市湘潭县射埠镇潭花居委会208号", "tel": " ", "category": "生活服务:邮局速递:邮局", "type": 0, "location": {"lat": 27.626204, "lng": 112.786092}, "ad_info": {"adcode": 430321, "province": "湖南省", "city": "湘潭市", "district": "湘潭县"}}, {"id": "2640854422631411802", "title": "兰馨龄", "address": "湖南省湘潭市岳塘区岚霞路金色华庭3栋门面", "tel": "0731-52330666", "category": "生活服务:美容美发:美容SPA", "type": 0, "location": {"lat": 27.829227, "lng": 112.917898}, "ad_info": {"adcode": 430304, "province": "湖南省", "city": "湘潭市", "district": "岳塘区"}}, {"id": "16255830416390263244", "title": "纤思韵专业产后恢复中心", "address": "湖南省湘潭市湘乡市燕兴华城A区107", "tel": " ", "category": "生活服务:美容美发:瘦身纤体", "type": 0, "location": {"lat": 27.72712, "lng": 112.54226}, "ad_info": {"adcode": 430381, "province": "湖南省", "city": "湘潭市", "district": "湘乡市"}}, {"id": "1619467927178467257", "title": "韵达速递(新颜路店)", "address": "湖南省湘潭市韶山市韶山中路老种子公司斜对面", "tel": " ", "category": "生活服务:邮局速递:速递", "type": 0, "location": {"lat": 27.918836, "lng": 112.533615}, "ad_info": {"adcode": 430382, "province": "湖南省", "city": "湘潭市", "district": "韶山市"}}, {"id": "6691598388172437318", "title": "天使湾养生美容会所", "address": "湖南省湘潭市雨湖区九华杉山社区b区26栋", "tel": " ", "category": "生活服务:美容美发:美容SPA", "type": 0, "location": {"lat": 27.931939, "lng": 112.931391}, "ad_info": {"adcode": 430302, "province": "湖南省", "city": "湘潭市", "district": "雨湖区"}}, {"id": "11210797109239092990", "title": "中国邮政(花石邮政所)", "address": "湖南省湘潭市湘潭县花石镇大桥路60号", "tel": " ", "category": "生活服务:邮局速递:邮局", "type": 0, "location": {"lat": 27.51099, "lng": 112.72008}, "ad_info": {"adcode": 430321, "province": "湖南省", "city": "湘潭市", "district": "湘潭县"}}, {"id": "17616858087412993711", "title": "湘乡物流基地", "address": "湖南省湘潭市湘乡市车站路南50米", "tel": " ", "category": "生活服务:邮局速递:物流仓储场地", "type": 0, "location": {"lat": 27.747, "lng": 112.52645}, "ad_info": {"adcode": 430381, "province": "湖南省", "city": "湘潭市", "district": "湘乡市"}}, {"id": "12928236185118869267", "title": "天福陵园", "address": "湖南省湘潭市雨湖区金桐路9号", "tel": " ", "category": "生活服务:丧葬", "type": 0, "location": {"lat": 27.89489, "lng": 112.89149}, "ad_info": {"adcode": 430302, "province": "湖南省", "city": "湘潭市", "district": "雨湖区"}}, {"id": "1401213696759450844", "title": "中国邮政(新研铺邮政所)", "address": "湖南省湘潭市湘乡市中国邮政(320国道北)", "tel": " ", "category": "生活服务:邮局速递:邮局", "type": 0, "location": {"lat": 27.78262, "lng": 112.61079}, "ad_info": {"adcode": 430381, "province": "湖南省", "city": "湘潭市", "district": "湘乡市"}}, {"id": "8851193523881657206", "title": "中国移动宽带电视服务中心", "address": "湖南省湘潭市湘潭县石潭镇横街9号门面正南方向50米", "tel": " ", "category": "生活服务:通讯服务:中国移动营业厅", "type": 0, "location": {"lat": 27.756508, "lng": 112.717783}, "ad_info": {"adcode": 430321, "province": "湖南省", "city": "湘潭市", "district": "湘潭县"}}, {"id": "13912304381194511436", "title": "中国邮政(潭市邮政支局)", "address": "湖南省湘潭市湘乡市谭市镇谭市村", "tel": " ", "category": "生活服务:邮局速递:邮局", "type": 0, "location": {"lat": 27.71712, "lng": 112.35394}, "ad_info": {"adcode": 430381, "province": "湖南省", "city": "湘潭市", "district": "湘乡市"}}, {"id": "5635173235601841985", "title": "聚美发社", "address": "湖南省湘潭市岳塘区芙蓉路24号广电中心对面西北方向30米", "tel": " ", "category": "生活服务:美容美发:美发", "type": 0, "location": {"lat": 27.827877, "lng": 112.936857}, "ad_info": {"adcode": 430304, "province": "湖南省", "city": "湘潭市", "district": "岳塘区"}}, {"id": "17727152409158441516", "title": "湘潭市雨湖区法律援助中心", "address": "湖南省湘潭市雨湖区建设北路228号", "tel": " ", "category": "生活服务:事务所", "type": 0, "location": {"lat": 27.869086, "lng": 112.903811}, "ad_info": {"adcode": 430302, "province": "湖南省", "city": "湘潭市", "district": "雨湖区"}}, {"id": "1003519693164727934", "title": "湘潭市残疾人劳动就业服务中心", "address": "湖南省湘潭市雨湖区迎宾中路1号", "tel": " ", "category": "生活服务:招聘求职", "type": 0, "location": {"lat": 27.85643, "lng": 112.89147}, "ad_info": {"adcode": 430302, "province": "湖南省", "city": "湘潭市", "district": "雨湖区"}}, {"id": "1524936113194877145", "title": "韶山风景名胜区游客换乘中心-导游服务", "address": "湖南省湘潭市韶山市韶峰路1号韶山风景名胜区游客换乘中心内", "tel": " ", "category": "生活服务:其它生活服务", "type": 0, "location": {"lat": 27.896561, "lng": 112.522636}, "ad_info": {"adcode": 430382, "province": "湖南省", "city": "湘潭市", "district": "韶山市"}}, {"id": "13228302234200427178", "title": "湘潭市鹤龄老年公寓", "address": "湖南省湘潭市雨湖区广云路29正西方向200米", "tel": " ", "category": "生活服务:福利院养老院", "type": 0, "location": {"lat": 27.869182, "lng": 112.908625}, "ad_info": {"adcode": 430302, "province": "湖南省", "city": "湘潭市", "district": "雨湖区"}}, {"id": "17963553274283973488", "title": "中国邮政(建鑫广场邮政支局)", "address": "湖南省湘潭市岳塘区宝塔街道89号丝绸广场6号楼1607、1608号门面", "tel": " ", "category": "生活服务:邮局速递:邮局", "type": 0, "location": {"lat": 27.84574, "lng": 112.94837}, "ad_info": {"adcode": 430304, "province": "湖南省", "city": "湘潭市", "district": "岳塘区"}}, {"id": "14523546766083646354", "title": "萱宜美肌美容养生会所", "address": "湖南省湘潭市湘潭县雪松北路117号", "tel": "18673208123", "category": "生活服务:美容美发:美容SPA", "type": 0, "location": {"lat": 27.79142, "lng": 112.96114}, "ad_info": {"adcode": 430321, "province": "湖南省", "city": "湘潭市", "district": "湘潭县"}}, {"id": "1387498682529468455", "title": "唯一·视觉摄影馆", "address": "湖南省湘潭市雨湖区北二环科大附近正东方向70米", "tel": "13017152543", "category": "生活服务:婚庆服务", "type": 0, "location": {"lat": 27.934832, "lng": 112.928893}, "ad_info": {"adcode": 430302, "province": "湖南省", "city": "湘潭市", "district": "雨湖区"}}, {"id": "734679955614446551", "title": "颜美美容养生会所", "address": "湖南省湘潭市岳塘区河东宝塔路口浦发银行楼上510号", "tel": " ", "category": "生活服务:美容美发:美容SPA", "type": 0, "location": {"lat": 27.836601, "lng": 112.92907}, "ad_info": {"adcode": 430304, "province": "湖南省", "city": "湘潭市", "district": "岳塘区"}}, {"id": "8917682499063542245", "title": "美格美发店", "address": "湖南省湘潭市岳塘区宝塔街道华宇国际大酒店", "tel": "13973254927", "category": "生活服务:美容美发:美发", "type": 0, "location": {"lat": 27.82657, "lng": 112.92152}, "ad_info": {"adcode": 430304, "province": "湖南省", "city": "湘潭市", "district": "岳塘区"}}, {"id": "1650334010081391412", "title": "中国邮政(松柏桥邮政所)", "address": "湖南省湘潭市湘潭县长青村街上组", "tel": " ", "category": "生活服务:邮局速递:邮局", "type": 0, "location": {"lat": 27.46725, "lng": 112.61536}, "ad_info": {"adcode": 430321, "province": "湖南省", "city": "湘潭市", "district": "湘潭县"}}, {"id": "12878544850308998067", "title": "湖南湘钢洪盛仓储物流园", "address": "湖南省湘潭市岳塘区双马街道车站南路23号", "tel": "0731-55518988;17373210039", "category": "生活服务:邮局速递:物流仓储场地", "type": 0, "location": {"lat": 27.84938, "lng": 112.98847}, "ad_info": {"adcode": 430304, "province": "湖南省", "city": "湘潭市", "district": "岳塘区"}}, {"id": "4923805070195167218", "title": "中通快递(湘潭岳塘店)", "address": "湖南省湘潭市岳塘区高新路霞光东路18号加速器工业园A2栋", "tel": " ", "category": "生活服务:邮局速递:速递", "type": 0, "location": {"lat": 27.84223, "lng": 112.97269}, "ad_info": {"adcode": 430304, "province": "湖南省", "city": "湘潭市", "district": "岳塘区"}}, {"id": "10343071094808616096", "title": "创艺造型美容美发", "address": "湖南省湘潭市雨湖区九华三鑫28号门面西南方向90米", "tel": "15898568634", "category": "生活服务:美容美发:美发", "type": 0, "location": {"lat": 27.90946, "lng": 112.92607}, "ad_info": {"adcode": 430302, "province": "湖南省", "city": "湘潭市", "district": "雨湖区"}}, {"id": "8042717302100922266", "title": "蕾特恩专业祛痘(国际)连锁(岚霞路店)", "address": "湖南省湘潭市岳塘区岚霞路255东北方向30米", "tel": " ", "category": "生活服务:美容美发:其它美容美发", "type": 0, "location": {"lat": 27.826312, "lng": 112.919711}, "ad_info": {"adcode": 430304, "province": "湖南省", "city": "湘潭市", "district": "岳塘区"}}, {"id": "2643445186384716201", "title": "中国移动通信(枣营业厅)", "address": "湖南省湘潭市湘乡市上街头与320国道交叉口西北50米", "tel": " ", "category": "生活服务:通讯服务:中国移动营业厅", "type": 0, "location": {"lat": 27.6524, "lng": 112.45731}, "ad_info": {"adcode": 430381, "province": "湖南省", "city": "湘潭市", "district": "湘乡市"}}, {"id": "3361447185717842307", "title": "中国邮政邮乐购(岳塘邮局)", "address": "湖南省湘潭市岳塘区下摄司街463号正北方向140米", "tel": "13397322009", "category": "生活服务:邮局速递:邮局", "type": 0, "location": {"lat": 27.815862, "lng": 112.922826}, "ad_info": {"adcode": 430304, "province": "湖南省", "city": "湘潭市", "district": "岳塘区"}}, {"id": "2611575222798563805", "title": "姜双美甲半永久化妆", "address": "湖南省湘潭市岳塘区建设南路480号", "tel": "0731-58256335; 15367428846", "category": "生活服务:美容美发:美甲", "type": 0, "location": {"lat": 27.831056, "lng": 112.921381}, "ad_info": {"adcode": 430304, "province": "湖南省", "city": "湘潭市", "district": "岳塘区"}}, {"id": "3048182212189065775", "title": "中国移动(科大东门万博营业厅)", "address": "湖南省湘潭市雨湖区吉利社区C区21栋13号门面", "tel": "0731-52633222", "category": "生活服务:通讯服务:中国移动营业厅", "type": 0, "location": {"lat": 27.905213, "lng": 112.927037}, "ad_info": {"adcode": 430302, "province": "湖南省", "city": "湘潭市", "district": "雨湖区"}}, {"id": "5463451075891278890", "title": "香港圣美凡(国际)女子会所", "address": "湖南省湘潭市雨湖区迎宾东路51号", "tel": " ", "category": "生活服务:美容美发:美容SPA", "type": 0, "location": {"lat": 27.853846, "lng": 112.89905}, "ad_info": {"adcode": 430302, "province": "湖南省", "city": "湘潭市", "district": "雨湖区"}}, {"id": "11128275256442184911", "title": "中国邮政(韶山冲邮政所)", "address": "湖南省湘潭市韶山市韶山村关公组", "tel": "18670966007; 18975293398", "category": "生活服务:邮局速递:邮局", "type": 0, "location": {"lat": 27.91422, "lng": 112.49525}, "ad_info": {"adcode": 430382, "province": "湖南省", "city": "湘潭市", "district": "韶山市"}}, {"id": "1142909496978234159", "title": "万人迷美甲", "address": "湖南省湘潭市湘乡市七一广场伏虎商业街D栋106号颐尔康足浴旁", "tel": "18373251972", "category": "生活服务:美容美发:美甲", "type": 0, "location": {"lat": 27.734713, "lng": 112.52903}, "ad_info": {"adcode": 430381, "province": "湖南省", "city": "湘潭市", "district": "湘乡市"}}, {"id": "520164144180896723", "title": "中国邮政(龙洞邮政支局)", "address": "湖南省湘潭市湘乡市X036(宁韶公路)", "tel": " ", "category": "生活服务:邮局速递:邮局", "type": 0, "location": {"lat": 27.8376, "lng": 112.52113}, "ad_info": {"adcode": 430381, "province": "湖南省", "city": "湘潭市", "district": "湘乡市"}}, {"id": "6211814100948221637", "title": "中国邮政(中路铺邮政所)", "address": "湖南省湘潭市湘潭县中路铺镇正东方向130米", "tel": " ", "category": "生活服务:邮局速递:邮局", "type": 0, "location": {"lat": 27.55194, "lng": 112.92997}, "ad_info": {"adcode": 430321, "province": "湖南省", "city": "湘潭市", "district": "湘潭县"}}, {"id": "9955207703232730410", "title": "中国邮政(月山邮政支局)", "address": "湖南省湘潭市湘乡市月山镇中国邮政", "tel": " ", "category": "生活服务:邮局速递:邮局", "type": 0, "location": {"lat": 27.82582, "lng": 112.31581}, "ad_info": {"adcode": 430381, "province": "湖南省", "city": "湘潭市", "district": "湘乡市"}}, {"id": "13321937060361903575", "title": "中国邮政(虞塘邮政所)", "address": "湖南省湘潭市湘乡市虞塘镇中国邮政(虞唐镇中学西150米)", "tel": " ", "category": "生活服务:邮局速递:邮局", "type": 0, "location": {"lat": 27.60768, "lng": 112.36159}, "ad_info": {"adcode": 430381, "province": "湖南省", "city": "湘潭市", "district": "湘乡市"}}, {"id": "5808338374692240447", "title": "中国邮政(锦石邮政所)", "address": "湖南省湘潭市湘潭县锦石乡东风街", "tel": " ", "category": "生活服务:邮局速递:邮局", "type": 0, "location": {"lat": 27.59468, "lng": 112.74618}, "ad_info": {"adcode": 430321, "province": "湖南省", "city": "湘潭市", "district": "湘潭县"}}, {"id": "1870338165671719164", "title": "中国联通(鹤岭营业厅)", "address": "湖南省湘潭市雨湖区果沙塘鹤岭路24号附近", "tel": " ", "category": "生活服务:通讯服务:中国联通营业厅", "type": 0, "location": {"lat": 27.96106, "lng": 112.86014}, "ad_info": {"adcode": 430302, "province": "湖南省", "city": "湘潭市", "district": "雨湖区"}}, {"id": "935393276786519585", "title": "万豪壶天电信专营店", "address": "湖南省湘潭市湘乡市壶天镇邮政局壶口支局旁(海尔专卖店对面)", "tel": "0731-56660005;18173248268", "category": "生活服务:通讯服务:中国电信营业厅", "type": 0, "location": {"lat": 27.86033, "lng": 112.04186}, "ad_info": {"adcode": 430381, "province": "湖南省", "city": "湘潭市", "district": "湘乡市"}}, {"id": "15273538686675944183", "title": "知名度专业美发", "address": "湖南省湘潭市岳塘区湖湘西路鸥泰酒店对面口子一百米(依路通房产旁)", "tel": "13875207966", "category": "生活服务:美容美发:美发", "type": 0, "location": {"lat": 27.830561, "lng": 112.934488}, "ad_info": {"adcode": 430304, "province": "湖南省", "city": "湘潭市", "district": "岳塘区"}}, {"id": "263507711986217100", "title": "杰西印象科学美肤中心(华隆步步高店)", "address": "湖南省湘潭市岳塘区建设中路1号华隆步步高二期C座20楼2001001", "tel": "13875989322", "category": "生活服务:美容美发:美容SPA", "type": 0, "location": {"lat": 27.831641, "lng": 112.919905}, "ad_info": {"adcode": 430304, "province": "湖南省", "city": "湘潭市", "district": "岳塘区"}}, {"id": "9705395177028509392", "title": "金月汇精致月子中心", "address": "湖南省湘潭市岳塘区双拥中路9号东方名苑商铺a栋", "tel": " ", "category": "生活服务:家政:月嫂保姆", "type": 0, "location": {"lat": 27.838794, "lng": 112.944428}, "ad_info": {"adcode": 430304, "province": "湖南省", "city": "湘潭市", "district": "岳塘区"}}, {"id": "2968711039436356236", "title": "MX造型", "address": "湖南省湘潭市岳塘区高新区双拥南路95号巨友中央公馆2栋0101007号", "tel": "0731-58395208", "category": "生活服务:美容美发:美发", "type": 0, "location": {"lat": 27.826286, "lng": 112.9473}, "ad_info": {"adcode": 430304, "province": "湖南省", "city": "湘潭市", "district": "岳塘区"}}, {"id": "7030174093381530331", "title": "中国移动手机专卖店(金石营业厅)", "address": "湖南省湘潭市湘乡市金石镇龙潭村坝上组109号西南方向80米", "tel": " ", "category": "生活服务:通讯服务:中国移动营业厅", "type": 0, "location": {"lat": 27.98198, "lng": 112.43015}, "ad_info": {"adcode": 430381, "province": "湖南省", "city": "湘潭市", "district": "湘乡市"}}, {"id": "14157366940926094704", "title": "玫香源纳米汗蒸馆(建鑫店)", "address": "湖南省湘潭市岳塘区河东大道建鑫广场二期铭逸酒店旁三栋三楼", "tel": " ", "category": "生活服务:美容美发:其它美容美发", "type": 0, "location": {"lat": 27.84541, "lng": 112.94943}, "ad_info": {"adcode": 430304, "province": "湖南省", "city": "湘潭市", "district": "岳塘区"}}, {"id": "1235552575066300902", "title": "大世界美发", "address": "湖南省湘潭市湘乡市望春门办事处华泰商业广场C栋1068号", "tel": "13217321581", "category": "生活服务:美容美发:美发", "type": 0, "location": {"lat": 27.738666, "lng": 112.53085}, "ad_info": {"adcode": 430381, "province": "湖南省", "city": "湘潭市", "district": "湘乡市"}}, {"id": "10745664652482771510", "title": "完美美容美发", "address": "湖南省湘潭市湘乡市大将中路教师新村东山雅苑1栋112号", "tel": "15073231010", "category": "生活服务:美容美发:美发", "type": 0, "location": {"lat": 27.73452, "lng": 112.54561}, "ad_info": {"adcode": 430381, "province": "湖南省", "city": "湘潭市", "district": "湘乡市"}}, {"id": "6844687537867354752", "title": "中国邮政(花坪邮政所)", "address": "湖南省湘潭市湘乡市311省道康万家药店西南40米", "tel": " ", "category": "生活服务:邮局速递:邮局", "type": 0, "location": {"lat": 27.80486, "lng": 112.45574}, "ad_info": {"adcode": 430381, "province": "湖南省", "city": "湘潭市", "district": "湘乡市"}}, {"id": "4244354196195077309", "title": "中国邮政(马坪邮政所)", "address": "湖南省湘潭市湘乡市马坪村爱晚亭家纺马坪店西侧", "tel": " ", "category": "生活服务:邮局速递:邮局", "type": 0, "location": {"lat": 27.92998, "lng": 112.2417}, "ad_info": {"adcode": 430381, "province": "湖南省", "city": "湘潭市", "district": "湘乡市"}}, {"id": "11638933241204180613", "title": "中国移动(杨林营业厅)", "address": "湖南省湘潭市韶山市瓦坪集镇2101号东南方向100米", "tel": " ", "category": "生活服务:通讯服务:中国移动营业厅", "type": 0, "location": {"lat": 27.96196, "lng": 112.48266}, "ad_info": {"adcode": 430382, "province": "湖南省", "city": "湘潭市", "district": "韶山市"}}, {"id": "3052575426918186444", "title": "韶山旅行社", "address": "湖南省湘潭市韶山市双拥路与韶峰路交叉口西100米", "tel": "13017322124", "category": "生活服务:旅行社", "type": 0, "location": {"lat": 27.911079, "lng": 112.49277}, "ad_info": {"adcode": 430382, "province": "湖南省", "city": "湘潭市", "district": "韶山市"}}, {"id": "16389015564540741169", "title": "湘潭林产品商贸物流中心", "address": "湖南省湘潭市雨湖区云湖桥镇潭邵路826号姜畲镇泉塘子村正东方向110米", "tel": " ", "category": "生活服务:邮局速递:物流公司", "type": 0, "location": {"lat": 27.86529, "lng": 112.83886}, "ad_info": {"adcode": 430302, "province": "湖南省", "city": "湘潭市", "district": "雨湖区"}}, {"id": "162300823569144438", "title": "中国移动宽带电视服务中心(虞唐营业厅)", "address": "湖南省湘潭市湘乡市开心果幼儿园(320国道南)", "tel": " ", "category": "生活服务:通讯服务:中国移动营业厅", "type": 0, "location": {"lat": 27.606579, "lng": 112.359723}, "ad_info": {"adcode": 430381, "province": "湖南省", "city": "湘潭市", "district": "湘乡市"}}, {"id": "5966120691561151747", "title": "中国邮政(金石邮政所)", "address": "湖南省湘潭市湘乡市金石镇金西鹅鸭组", "tel": " ", "category": "生活服务:邮局速递:邮局", "type": 0, "location": {"lat": 28.00398, "lng": 112.4604}, "ad_info": {"adcode": 430381, "province": "湖南省", "city": "湘潭市", "district": "湘乡市"}}, {"id": "15623705644281872718", "title": "中国移动古塘桥营业厅", "address": "湖南省湘潭市湘潭县古塘桥镇潭花线临街8/9号门面东北方向40米", "tel": " ", "category": "生活服务:通讯服务:中国移动营业厅", "type": 0, "location": {"lat": 27.70662, "lng": 112.8202}, "ad_info": {"adcode": 430321, "province": "湖南省", "city": "湘潭市", "district": "湘潭县"}}, {"id": "15852148594395217524", "title": "美之源汗蒸美容养生会所", "address": "湖南省湘潭市湘乡市东风路湘乡市水利局西正北方向40米", "tel": "18673214541", "category": "生活服务:美容美发:美容SPA", "type": 0, "location": {"lat": 27.73452, "lng": 112.53217}, "ad_info": {"adcode": 430381, "province": "湖南省", "city": "湘潭市", "district": "湘乡市"}}, {"id": "4298688595533259913", "title": "霞城敬老院", "address": "湖南省湘潭市岳塘区牡丹路5号", "tel": " ", "category": "生活服务:福利院养老院", "type": 0, "location": {"lat": 27.82424, "lng": 112.9311}, "ad_info": {"adcode": 430304, "province": "湖南省", "city": "湘潭市", "district": "岳塘区"}}, {"id": "12597926801263802586", "title": "湘潭县中心敬老院", "address": "湖南省湘潭市湘潭县海棠南路390号", "tel": " ", "category": "生活服务:福利院养老院", "type": 0, "location": {"lat": 27.75474, "lng": 112.95446}, "ad_info": {"adcode": 430321, "province": "湖南省", "city": "湘潭市", "district": "湘潭县"}}, {"id": "13182977875204958322", "title": "汪星球宠物生活馆", "address": "湖南省湘潭市雨湖区韶山东路258号", "tel": "15675292950", "category": "生活服务:宠物服务:宠物商店", "type": 0, "location": {"lat": 27.868511, "lng": 112.920606}, "ad_info": {"adcode": 430302, "province": "湖南省", "city": "湘潭市", "district": "雨湖区"}}, {"id": "2592181776495349539", "title": "中国移动(玉兰路营业厅)", "address": "湖南省湘潭市湘潭县玉兰南路花果山庄B栋18-19号", "tel": " ", "category": "生活服务:通讯服务:中国移动营业厅", "type": 0, "location": {"lat": 27.77057, "lng": 112.95069}, "ad_info": {"adcode": 430321, "province": "湖南省", "city": "湘潭市", "district": "湘潭县"}}, {"id": "1801363048257797786", "title": "中国邮政(横铺邮政所)", "address": "湖南省湘潭市湘乡市横铺邮政所(030县道东)", "tel": " ", "category": "生活服务:邮局速递:邮局", "type": 0, "location": {"lat": 27.58947, "lng": 112.56947}, "ad_info": {"adcode": 430381, "province": "湖南省", "city": "湘潭市", "district": "湘乡市"}}, {"id": "6984635479160808335", "title": "国家电网河口供电营业所", "address": "湖南省湘潭市湘潭县014县道北50米", "tel": " ", "category": "生活服务:电力营业厅", "type": 0, "location": {"lat": 27.7945, "lng": 112.88137}, "ad_info": {"adcode": 430321, "province": "湖南省", "city": "湘潭市", "district": "湘潭县"}}, {"id": "9019191239737985767", "title": "圣梦亲体美肤生活馆(霞光店)", "address": "湖南省湘潭市岳塘区霞光西路麻无山综合楼4-5号", "tel": " ", "category": "生活服务:美容美发:美容SPA", "type": 0, "location": {"lat": 27.82915, "lng": 112.92159}, "ad_info": {"adcode": 430304, "province": "湖南省", "city": "湘潭市", "district": "岳塘区"}}, {"id": "10285457863039128773", "title": "克丽缇娜(纳帕溪谷店)", "address": "湖南省湘潭市岳塘区湖湘西路湘银纳帕溪谷", "tel": " ", "category": "生活服务:美容美发:美容SPA", "type": 0, "location": {"lat": 27.834416, "lng": 112.935055}, "ad_info": {"adcode": 430304, "province": "湖南省", "city": "湘潭市", "district": "岳塘区"}}, {"id": "6776089914064413151", "title": "圣梦亲体美肤生活馆(韶山东店)", "address": "湖南省湘潭市雨湖区韶山东路393号", "tel": " ", "category": "生活服务:美容美发:美容SPA", "type": 0, "location": {"lat": 27.865281, "lng": 112.913759}, "ad_info": {"adcode": 430302, "province": "湖南省", "city": "湘潭市", "district": "雨湖区"}}, {"id": "3687265433012529731", "title": "中国邮政(梅桥邮政所)", "address": "湖南省湘潭市湘乡市梅桥邮政所(030县道东)", "tel": " ", "category": "生活服务:邮局速递:邮局", "type": 0, "location": {"lat": 27.65177, "lng": 112.53451}, "ad_info": {"adcode": 430381, "province": "湖南省", "city": "湘潭市", "district": "湘乡市"}}, {"id": "5802362735877785918", "title": "中国移动横铺营业厅", "address": "湖南省湘潭市湘乡市横铺乡横铺村正南方向140米", "tel": " ", "category": "生活服务:通讯服务:中国移动营业厅", "type": 0, "location": {"lat": 27.58829, "lng": 112.56908}, "ad_info": {"adcode": 430381, "province": "湖南省", "city": "湘潭市", "district": "湘乡市"}}, {"id": "14367971035567592703", "title": "克丽缇娜(华雅花园店)", "address": "湖南省湘潭市岳塘区华雅花园A2栋13号门面", "tel": " ", "category": "生活服务:美容美发:美容SPA", "type": 0, "location": {"lat": 27.81483, "lng": 112.9348}, "ad_info": {"adcode": 430304, "province": "湖南省", "city": "湘潭市", "district": "岳塘区"}}, {"id": "4785901140919911623", "title": "中国电信集团湖南配送中心", "address": "湖南省湘潭市岳塘区 ", "tel": " ", "category": "生活服务:通讯服务:其它通讯服务", "type": 0, "location": {"lat": 27.96401, "lng": 113.03408}, "ad_info": {"adcode": 430304, "province": "湖南省", "city": "湘潭市", "district": "岳塘区"}}, {"id": "16569143845299259312", "title": "纤指蔻化妆美甲店", "address": "湖南省湘潭市湘潭县易俗河镇杏花一路1号", "tel": " ", "category": "生活服务:美容美发:美甲", "type": 0, "location": {"lat": 27.780811, "lng": 112.946723}, "ad_info": {"adcode": 430321, "province": "湖南省", "city": "湘潭市", "district": "湘潭县"}}, {"id": "14355675155358245928", "title": "中国邮政(湘乡市邮政局壶口支局)", "address": "湖南省湘潭市湘乡市邮政局壶口支局(209省道南)", "tel": " ", "category": "生活服务:邮局速递:邮局", "type": 0, "location": {"lat": 27.85998, "lng": 112.04165}, "ad_info": {"adcode": 430381, "province": "湖南省", "city": "湘潭市", "district": "湘乡市"}}, {"id": "18125529932669497265", "title": "雪芙莱干洗(基建营店)", "address": "湖南省湘潭市雨湖区韶山东路18号E世界电脑城西北方向70米", "tel": "18673202902", "category": "生活服务:洗衣店", "type": 0, "location": {"lat": 27.866426, "lng": 112.915374}, "ad_info": {"adcode": 430302, "province": "湖南省", "city": "湘潭市", "district": "雨湖区"}}, {"id": "18036488130587139780", "title": "黑桃A国际连锁养发中心", "address": "湖南省湘潭市雨湖区大湖南路43号", "tel": "13117527555", "category": "生活服务:美容美发:美发", "type": 0, "location": {"lat": 27.85381, "lng": 112.901}, "ad_info": {"adcode": 430302, "province": "湖南省", "city": "湘潭市", "district": "雨湖区"}}, {"id": "14917888932101965159", "title": "中国移动(壶天营业厅)", "address": "湖南省湘潭市湘乡市壶天镇", "tel": " ", "category": "生活服务:通讯服务:中国移动营业厅", "type": 0, "location": {"lat": 27.86027, "lng": 112.04256}, "ad_info": {"adcode": 430381, "province": "湖南省", "city": "湘潭市", "district": "湘乡市"}}, {"id": "8497459852420625251", "title": "丝域养发馆(东方名苑店)", "address": "湖南省湘潭市岳塘区东方名苑·臻嘉园D-106", "tel": "18507332229", "category": "生活服务:美容美发:美发", "type": 0, "location": {"lat": 27.838684, "lng": 112.946433}, "ad_info": {"adcode": 430304, "province": "湖南省", "city": "湘潭市", "district": "岳塘区"}}, {"id": "15658724443799575717", "title": "涵养盐蒸养生馆", "address": "湖南省湘潭市岳塘区金侨世纪苑南门", "tel": "15073254387", "category": "生活服务:美容美发:其它美容美发", "type": 0, "location": {"lat": 27.83394, "lng": 112.95038}, "ad_info": {"adcode": 430304, "province": "湖南省", "city": "湘潭市", "district": "岳塘区"}}, {"id": "16747186214458697062", "title": "佐佐·木发型设计", "address": "湖南省湘潭市岳塘区建设路口步步高莲城步行街胜道体育旁C区118号(周大生珠宝旁)", "tel": "18692266236", "category": "生活服务:美容美发:美发", "type": 0, "location": {"lat": 27.83188, "lng": 112.91929}, "ad_info": {"adcode": 430304, "province": "湖南省", "city": "湘潭市", "district": "岳塘区"}}, {"id": "6115411253055056255", "title": "发源地(大正街店)", "address": "湖南省湘潭市湘乡市工贸新区烟酒副食大市场1栋202号原老电影院正南方向60米", "tel": "18773216868", "category": "生活服务:美容美发:美发", "type": 0, "location": {"lat": 27.73107, "lng": 112.53296}, "ad_info": {"adcode": 430381, "province": "湖南省", "city": "湘潭市", "district": "湘乡市"}}, {"id": "11085379112619649335", "title": "千姿美容美发店", "address": "湖南省湘潭市雨湖区广新巷48-5附近", "tel": " ", "category": "生活服务:美容美发:美容SPA", "type": 0, "location": {"lat": 27.864917, "lng": 112.900511}, "ad_info": {"adcode": 430302, "province": "湖南省", "city": "湘潭市", "district": "雨湖区"}}, {"id": "7243581472741214197", "title": "中国邮政集团公司湖南省韶山市分公司", "address": "湖南省湘潭市韶山市英雄路100号", "tel": " ", "category": "生活服务:邮局速递:邮局", "type": 0, "location": {"lat": 27.9206, "lng": 112.5266}, "ad_info": {"adcode": 430382, "province": "湖南省", "city": "湘潭市", "district": "韶山市"}}, {"id": "3137537747155973569", "title": "快乐造型(车站路店)", "address": "湖南省湘潭市雨湖区车站路21正北方向40米", "tel": "13975223973", "category": "生活服务:美容美发:美发", "type": 0, "location": {"lat": 27.860485, "lng": 112.908056}, "ad_info": {"adcode": 430302, "province": "湖南省", "city": "湘潭市", "district": "雨湖区"}}, {"id": "13312077860483669200", "title": "伊斯曼形象设计", "address": "湖南省湘潭市岳塘区宝塔街道云盘路金桂园", "tel": "13217422417; 18873263602", "category": "生活服务:美容美发:美发", "type": 0, "location": {"lat": 27.846737, "lng": 112.956628}, "ad_info": {"adcode": 430304, "province": "湖南省", "city": "湘潭市", "district": "岳塘区"}}, {"id": "1329571045322211203", "title": "衣本色", "address": "湖南省湘潭市岳塘区建设南路102号步步高广场湘潭店A馆3层", "tel": " ", "category": "生活服务:洗衣店", "type": 0, "location": {"lat": 27.83431, "lng": 112.9181}, "ad_info": {"adcode": 430304, "province": "湖南省", "city": "湘潭市", "district": "岳塘区"}}, {"id": "3445811885934275822", "title": "建通国际综合物流园", "address": "湖南省湘潭市岳塘区荷塘街道荷塘乡团山铺街8号", "tel": " ", "category": "生活服务:邮局速递:物流仓储场地", "type": 0, "location": {"lat": 27.898613, "lng": 112.990633}, "ad_info": {"adcode": 430304, "province": "湖南省", "city": "湘潭市", "district": "岳塘区"}}, {"id": "15602735365688143039", "title": "流行美", "address": "湖南省湘潭市岳塘区建设南路与霞光西路交汇处东北方向5米", "tel": " ", "category": "生活服务:美容美发:美甲", "type": 0, "location": {"lat": 27.82912, "lng": 112.92152}, "ad_info": {"adcode": 430304, "province": "湖南省", "city": "湘潭市", "district": "岳塘区"}}, {"id": "6660924598041096563", "title": "苗方清颜专业祛痘(芙蓉电影院店)", "address": "湖南省湘潭市雨湖区韶山西路143号", "tel": "13332527775", "category": "生活服务:美容美发:美容SPA", "type": 0, "location": {"lat": 27.861595, "lng": 112.900506}, "ad_info": {"adcode": 430302, "province": "湖南省", "city": "湘潭市", "district": "雨湖区"}}, {"id": "9340745221424683201", "title": "天天快递(九华分部)", "address": "湖南省湘潭市雨湖区立志路九华杉山社区C区10栋", "tel": "0731-52777669", "category": "生活服务:邮局速递:速递", "type": 0, "location": {"lat": 27.934392, "lng": 112.929466}, "ad_info": {"adcode": 430302, "province": "湖南省", "city": "湘潭市", "district": "雨湖区"}}, {"id": "3034547421827586773", "title": "女色国度造型", "address": "湖南省湘潭市雨湖区基建营韶山东路365号", "tel": "15898599155", "category": "生活服务:美容美发:美发", "type": 0, "location": {"lat": 27.865423, "lng": 112.914346}, "ad_info": {"adcode": 430302, "province": "湖南省", "city": "湘潭市", "district": "雨湖区"}}, {"id": "2792936082128718030", "title": "中国移动(白石广场营业厅)", "address": "湖南省湘潭市雨湖区大湖南路1号湘潭移动通信大楼1层", "tel": " ", "category": "生活服务:通讯服务:中国移动营业厅", "type": 0, "location": {"lat": 27.85484, "lng": 112.9001}, "ad_info": {"adcode": 430302, "province": "湖南省", "city": "湘潭市", "district": "雨湖区"}}, {"id": "10624645571441581224", "title": "纤纤伊人美容养生会所(湘潭店)", "address": "湖南省湘潭市雨湖区砂子岭阳光山庄烟竹佳园B栋10号门面", "tel": "18166195120", "category": "生活服务:美容美发:美容SPA", "type": 0, "location": {"lat": 27.85936, "lng": 112.88379}, "ad_info": {"adcode": 430302, "province": "湖南省", "city": "湘潭市", "district": "雨湖区"}}, {"id": "15399968302324571744", "title": "纤纤公主", "address": "湖南省湘潭市岳塘区莲城商业步行街C153", "tel": "15197212996", "category": "生活服务:美容美发:美甲", "type": 0, "location": {"lat": 27.831511, "lng": 112.919059}, "ad_info": {"adcode": 430304, "province": "湖南省", "city": "湘潭市", "district": "岳塘区"}}, {"id": "1155851198724147134", "title": "胸博士", "address": "湖南省湘潭市岳塘区河东大道电业局旁逸林酒店一栋一单元五楼", "tel": " ", "category": "生活服务:美容美发:美容SPA", "type": 0, "location": {"lat": 27.843182, "lng": 112.94343}, "ad_info": {"adcode": 430304, "province": "湖南省", "city": "湘潭市", "district": "岳塘区"}}, {"id": "12400767645175890184", "title": "接发潮牌·刺客纹身", "address": "湖南省湘潭市岳塘区建设路口步行街麦当劳南侧50米城市魔方1045A号", "tel": "18975288109", "category": "生活服务:美容美发:美发", "type": 0, "location": {"lat": 27.830606, "lng": 112.919708}, "ad_info": {"adcode": 430304, "province": "湖南省", "city": "湘潭市", "district": "岳塘区"}}, {"id": "11682782127540721981", "title": "爱康宠物医院(韶山西路)", "address": "湖南省湘潭市雨湖区韶山西路97号", "tel": "13875245243", "category": "生活服务:宠物服务:宠物医院", "type": 0, "location": {"lat": 27.861872, "lng": 112.901462}, "ad_info": {"adcode": 430302, "province": "湖南省", "city": "湘潭市", "district": "雨湖区"}}, {"id": "7846406539514046884", "title": "湘潭市康馨老年公寓(湘大分部)", "address": "湖南省湘潭市雨湖区023乡道与029乡道交叉口西南200米", "tel": " ", "category": "生活服务:福利院养老院", "type": 0, "location": {"lat": 27.887073, "lng": 112.873433}, "ad_info": {"adcode": 430302, "province": "湖南省", "city": "湘潭市", "district": "雨湖区"}}, {"id": "8711810407542619036", "title": "湘潭美利冷冻物流园", "address": "湖南省湘潭市岳塘区晓塘东路凳桥山庄14～16号东南方向200米", "tel": " ", "category": "生活服务:邮局速递:物流仓储场地", "type": 0, "location": {"lat": 27.82296, "lng": 112.96433}, "ad_info": {"adcode": 430304, "province": "湖南省", "city": "湘潭市", "district": "岳塘区"}}, {"id": "1125346254903282185", "title": "宅乐馆有家照相馆", "address": "湖南省湘潭市雨湖区建设北路(中交一公司旁)", "tel": "13107326944", "category": "生活服务:摄影冲印", "type": 0, "location": {"lat": 27.866197, "lng": 112.905489}, "ad_info": {"adcode": 430302, "province": "湖南省", "city": "湘潭市", "district": "雨湖区"}}, {"id": "15153144211539780434", "title": "百莲凯国际连锁美容美体spa养生会馆", "address": "湖南省湘潭市韶山市如意路好食在大食堂旁", "tel": " ", "category": "生活服务:美容美发:美容SPA", "type": 0, "location": {"lat": 27.9189, "lng": 112.52482}, "ad_info": {"adcode": 430382, "province": "湖南省", "city": "湘潭市", "district": "韶山市"}}, {"id": "1477990556264118571", "title": "优美造型专业美发", "address": "湖南省湘潭市雨湖区建设北路一中右侧", "tel": "15367421626", "category": "生活服务:美容美发:美发", "type": 0, "location": {"lat": 27.863613, "lng": 112.905142}, "ad_info": {"adcode": 430302, "province": "湖南省", "city": "湘潭市", "district": "雨湖区"}}, {"id": "6170175921472555036", "title": "靓丽坊美容美体中心", "address": "湖南省湘潭市雨湖区湖南科技大学北校门口左街前100米", "tel": "13055151104", "category": "生活服务:美容美发:美容SPA", "type": 0, "location": {"lat": 27.903202, "lng": 112.916882}, "ad_info": {"adcode": 430302, "province": "湖南省", "city": "湘潭市", "district": "雨湖区"}}, {"id": "4352664527101276039", "title": "弘景老年公寓", "address": "湖南省湘潭市岳塘区建设中路10号中建五局院内", "tel": " ", "category": "生活服务:福利院养老院", "type": 0, "location": {"lat": 27.83656, "lng": 112.91795}, "ad_info": {"adcode": 430304, "province": "湖南省", "city": "湘潭市", "district": "岳塘区"}}, {"id": "15379875445291236136", "title": "自由风造型", "address": "湖南省湘潭市湘乡市滨河北路55号(武装部)", "tel": "15073233283", "category": "生活服务:美容美发:美发", "type": 0, "location": {"lat": 27.732325, "lng": 112.536626}, "ad_info": {"adcode": 430381, "province": "湖南省", "city": "湘潭市", "district": "湘乡市"}}, {"id": "6819727240114329883", "title": "H·D发型社", "address": "湖南省湘潭市岳塘区莲城商业步行街C150", "tel": "18373297537", "category": "生活服务:美容美发:美发", "type": 0, "location": {"lat": 27.831572, "lng": 112.919106}, "ad_info": {"adcode": 430304, "province": "湖南省", "city": "湘潭市", "district": "岳塘区"}}, {"id": "2638048915967617937", "title": "美誉美妆", "address": "湖南省湘潭市岳塘区电工北路6号(春满江南对面)", "tel": " ", "category": "生活服务:美容美发:美甲", "type": 0, "location": {"lat": 27.81082, "lng": 112.9328}, "ad_info": {"adcode": 430304, "province": "湖南省", "city": "湘潭市", "district": "岳塘区"}}, {"id": "3421489817856499654", "title": "唯美度美容养生(务门前街)", "address": "湖南省湘潭市湘乡市草萝街10号", "tel": " ", "category": "生活服务:美容美发:美容SPA", "type": 0, "location": {"lat": 27.732679, "lng": 112.53416}, "ad_info": {"adcode": 430381, "province": "湖南省", "city": "湘潭市", "district": "湘乡市"}}, {"id": "4712480737562338019", "title": "中国移动宽带电视服务中心火车站营业厅", "address": "湖南省湘潭市湘乡市明珠楼9/10号门面", "tel": "13786211744", "category": "生活服务:通讯服务:中国移动营业厅", "type": 0, "location": {"lat": 27.74205, "lng": 112.5302}, "ad_info": {"adcode": 430381, "province": "湖南省", "city": "湘潭市", "district": "湘乡市"}}, {"id": "11469416092041943553", "title": "美尚光子皮肤管理中心", "address": "湖南省湘潭市雨湖区云塘街道车站路万人新村4栋美尚光子湘潭分店", "tel": " ", "category": "生活服务:美容美发:美发", "type": 0, "location": {"lat": 27.865894, "lng": 112.910507}, "ad_info": {"adcode": 430302, "province": "湖南省", "city": "湘潭市", "district": "雨湖区"}}, {"id": "5172712032611826991", "title": "米娜造型", "address": "湖南省湘潭市雨湖区新湘路湘谭大学教师公寓D8栋10号门面", "tel": " ", "category": "生活服务:美容美发:美发", "type": 0, "location": {"lat": 27.884853, "lng": 112.867691}, "ad_info": {"adcode": 430302, "province": "湖南省", "city": "湘潭市", "district": "雨湖区"}}, {"id": "6254502728642140821", "title": "馨颜经络养生馆", "address": "湖南省湘潭市雨湖区建设北路108号(工商银行宿舍区)2栋2单元301", "tel": " ", "category": "生活服务:美容美发:美容SPA", "type": 0, "location": {"lat": 27.863834, "lng": 112.90585}, "ad_info": {"adcode": 430302, "province": "湖南省", "city": "湘潭市", "district": "雨湖区"}}, {"id": "3640439528699108742", "title": "岚园新城便利邮局", "address": "湖南省湘潭市岳塘区福星西路6附近", "tel": " ", "category": "生活服务:邮局速递:邮局", "type": 0, "location": {"lat": 27.839507, "lng": 112.914528}, "ad_info": {"adcode": 430304, "province": "湖南省", "city": "湘潭市", "district": "岳塘区"}}, {"id": "14536229073485339399", "title": "美度造型(凤凰店)", "address": "湖南省湘潭市湘潭县飞羊东路水云居对面(锦绣湘江二期)", "tel": " ", "category": "生活服务:美容美发:美发", "type": 0, "location": {"lat": 27.790277, "lng": 112.956917}, "ad_info": {"adcode": 430321, "province": "湖南省", "city": "湘潭市", "district": "湘潭县"}}]